[
    {
      "id":   1,
      "lat":  35.33855277316968,  
      "lng":  25.136388184199234, 
      "type": "HOTEL",
      "name": "Astoria",
      "desc": "Ξενοδοχείο 4 Αστέρων",
      "address": "Πλ. Ελευθερίας",
      "city": "HER",
      "link": "https://capsishotels.gr/astoria/"
    },
    {
        "id":   2,
        "lat":  35.34104377464164,  
        "lng":  25.135649370706606, 
        "type": "HOTEL",
        "name": "Ibιs Styles",
        "desc": "Ξενοδοχείο 4 Αστέρων",
        "address": "Κορωναίου 26 & Αγίου Τίτου",
        "city": "HER",
        "link": "https://all.accor.com/hotel/A9P7/index.en.shtml?utm_campaign=seo+maps&utm_medium=seo+maps&utm_source=google+Maps"
    },
    {
        "id":   3,
        "lat":  35.32417575947751,  
        "lng":  25.386972559063874, 
        "type": "HOTEL",
        "name": "Creta Maris",
        "desc": "Ξενοδοχείο 5 Αστέρων",
        "address": "Ναυάρχου Νεάρχου, Λιμένας Χερσονήσου",
        "city": "HER",
        "link": "https://www.cretamaris.gr/"
    },
    {
        "id":   4,
        "lat":  35.29076138181775,  
        "lng":  25.44480637255568, 
        "type": "HOTEL",
        "name": "Alexander Beach",
        "desc": "Ξενοδοχείο 5 Αστέρων",
        "address": "Μάλια 700 07",
        "city": "HER",
        "link": "https://www.alexander-beach.com/"
    },
    {
        "id":   5,
        "lat":  35.29204123640355,  
        "lng":  25.45490011303366, 
        "type": "HOTEL",
        "name": "Akrogiali Beach Hotel",
        "desc": "Ξενοδοχείο 3 Αστέρων",
        "address": "Μάλια 700 07",
        "city": "HER",
        "link": "https://www.akrogiali-hotel.gr/"
    },
    {
        "id":   6,
        "lat":  35.33156598906123,  
        "lng":  25.300984599542044, 
        "type": "HOTEL",
        "name": "Gouves Park Holiday Resort",
        "desc": "Ξενοδοχείο 5 Αστέρων",
        "address": "Κάτω Γούβες 700 14",
        "city": "HER",
        "link": "https://www.gouvespark.gr/"
    },
    {
        "id":   7,
        "lat":  35.41501606166925,  
        "lng":  25.01995604187278, 
        "type": "HOTEL",
        "name": "Peninsula",
        "desc": "Ξενοδοχείο 4 Αστέρων",
        "address": "Αγία Πελαγία 71500",
        "city": "HER",
        "link": "https://peninsula.gr/"
    },
    {
        "id":   8,
        "lat":  35.366476815483026,   
        "lng":  24.491309899543122, 
        "type": "HOTEL",
        "name": "Litsa's Lefkoniko Beach",
        "desc": "Ξενοδοχείο  Αστέρων",
        "address": "28ης Οκτωβρίου",
        "city": "RETH",
        "link": "http://www.lefkoniko.gr/hotel.asp?myid=1001"
    },
    {
        "id":   9,
        "lat":  35.36926695455289,   
        "lng":  24.518715540021212, 
        "type": "HOTEL",
        "name": "Grecotel Creta Palace",
        "desc": "Ξενοδοχείο 5 Αστέρων",
        "address": "Missiria, Ρέθυμνο 741 00",
        "city": "RETH",
        "link": "https://www.cretapalace.com/el/index.html"
    },
    {
        "id":   10,
        "lat":  35.41320390760395,   
        "lng":  24.782816370708627, 
        "type": "HOTEL",
        "name": "Bali Beach & Village Hotel",
        "desc": "Ξενοδοχείο 3 Αστέρων",
        "address": "Μπαλί 740 57",
        "city": "RETH",
        "link": "https://www.balibeach.gr/"
    },
    {
        "id":   11,
        "lat":  35.37478000198075,   
        "lng":  24.5519479418718, 
        "type": "HOTEL",
        "name": "Rethymno Palace",
        "desc": "Ξενοδοχείο 5 Αστέρων",
        "address": "Adelianos Kampos",
        "city": "RETH",
        "link": "https://www.rethymnopalace.gr/"
    },
    {
        "id":   12,
        "lat":  35.368782404380106,    
        "lng":  24.532117653513833, 
        "type": "HOTEL",
        "name": "Nefeli Hotel",
        "desc": "Ξενοδοχείο 3 Αστέρων",
        "address": "Λεωφ. Μάχης Κρήτης 161",
        "city": "RETH",
        "link": "https://nefeli-hotel.gr/"
    },
    {
        "id": 13,
        "lat": 35.36642027445717,   
        "lng": 24.486829247951658, 
        "type": "HOTEL",
        "name": "Porto Rethymno",
        "desc": "Ξενοδοχείο 5 Αστέρων",
        "address": "Σοφοκλή Βενιζέλου",
        "city": "RETH",
        "link": "https://portorethymno.com/"
    },
    {
        "id":   14,
        "lat":  35.354239490697054,    
        "lng":  24.281083184199623, 
        "type": "HOTEL",
        "name": "Anemos Luxury Grand Resort",
        "desc": "Ξενοδοχείο 5 Αστέρων",
        "address": "Επαρ.Οδ. Γεωργιούπολης-Κουρνάς",
        "city": "CHQ",
        "link": "https://www.anemosresort.com/en-gb"
    },
    {
        "id":   15,
        "lat":  35.35326785639448,     
        "lng":  24.297193575436385, 
        "type": "HOTEL",
        "name": "Orpheas Resort Hotel",
        "desc": "Ξενοδοχείο 4 Αστέρων",
        "address": "Παραλία Κούρνα 730 07",
        "city": "CHQ",
        "link": "http://www.orpheas-resort.gr/"
    },
    {
        "id":   16,
        "lat":  35.35210139824102,    
        "lng":  24.29357855089197, 
        "type": "HOTEL",
        "name": "Vantaris Palace",
        "desc": "Ξενοδοχείο 4 Αστέρων",
        "address": "Παραλία Κούρνα 730 07",
        "city": "CHQ",
        "link": "https://www.vantarishotels.gr/vantarispalace/"
    },
    {
        "id":   17,
        "lat":  35.511988011357765,    
        "lng":  23.983444259069074, 
        "type": "HOTEL",
        "name": "Elotia Hotel",
        "desc": "Ξενοδοχείο 3 Αστέρων",
        "address": "Αγ. Αποστόλοι 731 00",
        "city": "CHQ",
        "link": "https://www.hotelelotia.com/"
    },
    {
        "id":   18,
        "lat":  35.51939195816855,    
        "lng":  23.88475276701077, 
        "type": "HOTEL",
        "name": "Atlantica Creta Paradise",
        "desc": "Ξενοδοχείο 4 Αστέρων",
        "address": "Πάροδοσ, ΠΕΟ Κισσάμου Χανίων, Γεράνι 730 14",
        "city": "CHQ",
        "link": "https://www.atlanticahotels.com/"
    },
    {
        "id":   19,
        "lat":  35.517874659906056,    
        "lng":  23.912397168861048, 
        "type": "HOTEL",
        "name": "Porto Platanias Beach Resort & Spa",
        "desc": "Ξενοδοχείο 5 Αστέρων",
        "address": "Πλατανιάς 730 14",
        "city": "CHQ",
        "link": "https://www.portoplatanias.com/"
    },
    {
        "id":   20,
        "lat":  35.51367273919853,    
        "lng":  24.017243097696802, 
        "type": "HOTEL",
        "name": "Arkadi Hotel",
        "desc": "Ξενοδοχείο 3 Αστέρων",
        "address": "Πλατεία 1866",
        "city": "CHQ",
        "link": "https://www.arkadi-hotel.gr/"
    },
    {
        "id":   21,
        "lat":  35.51364096718296,    
        "lng":  24.01633395351844, 
        "type": "HOTEL",
        "name": "Central City Hotel",
        "desc": "Ξενοδοχείο 3 Αστέρων",
        "address": "Σκαλίδη 27, Χανιά 731 00",
        "city": "CHQ",
        "link": "https://centralchania.gr/"
    },
    {
        "id":   22,
        "lat":  35.27902694246243,   
        "lng":  25.723727624675682 , 
        "type": "HOTEL",
        "name": "Selena Hotel",
        "desc": "Ξενοδοχείο 3 Αστέρων",
        "address": "Σχίσμα Ελούντας 720 53",
        "city": "AGN",
        "link": "http://www.eloundahotelselena.com/"
    },
    {
        "id":   23,
        "lat":  35.2938531903486,    
        "lng":  25.725974582347504, 
        "type": "HOTEL",
        "name": "Blue Palace,a Luxury Collection Resort and Spa",
        "desc": "Ξενοδοχείο 5 Αστέρων",
        "address": "Πλάκα, Σχίσμα Ελούντας 720 53",
        "city": "AGN",
        "link": "https://www.marriott.com/hotels/travel/herlc-blue-palace-elounda-a-luxury-collection-resort-and-spa-crete/"
    },
    {
        "id":   24,
        "lat":  35.16692794675074,    
        "lng":  25.7109097189453, 
        "type": "HOTEL",
        "name": "Faidra Beach Resort",
        "desc": "Ξενοδοχείο 4 Αστέρων",
        "address": "Αμμουδάρα 721 00",
        "city": "AGN",
        "link": "https://www.faedrabeach.gr/"
    },
    {
        "id":   25,
        "lat":  35.18110116156162,    
        "lng":  25.711447926523274, 
        "type": "HOTEL",
        "name": "Miramare Resort and Spa",
        "desc": "Ξενοδοχείο 4 Αστέρων",
        "address": "Περιοχή Γαργαδώρος",
        "city": "AGN",
        "link": "https://www.miramarecrete.gr/"
    },
    {
        "id":   26,
        "lat":  35.189961051152046,    
        "lng":  25.72102369953818, 
        "type": "HOTEL",
        "name": "mare hotel apartments",
        "desc": "Ξενοδοχείο 3 Αστέρων",
        "address": "Τσελέπη 26",
        "city": "AGN",
        "link": "https://www.mare-olympus.gr/"
    },
    {
        "id":   27,
        "lat":  35.125432207152514,    
        "lng":  25.753228066999725, 
        "type": "HOTEL",
        "name": "Istron Bay Hotel",
        "desc": "Ξενοδοχείο 3 Αστέρων",
        "address": "ΕΟ Αγίου Νικολάου Σητείας 109, Αγ. Νικόλαος 721 00",
        "city": "AGN",
        "link": "http://www.istronbay.gr/el/"
    }
]
